[
  {
    "id": "1",
    "title": "Jakarta Tech Festival 2025",
    "hostBy": "Tech Indonesia",
    "date": "2025-11-10T09:00:00Z",
    "status": "Open",
    "category": "Technology",
    "latitude": -6.21462,
    "longitude": 106.84513
  },
  {
    "id": "2",
    "title": "Surabaya Startup Meetup",
    "hostBy": "Surabaya Innovators",
    "date": "2025-10-30T14:00:00Z",
    "status": "Open",
    "category": "Technology",
    "latitude": -7.25747,
    "longitude": 112.75209
  },
  {
    "id": "3",
    "title": "Bali Creative Art Week",
    "hostBy": "Artnesia Foundation",
    "date": "2025-11-20T10:00:00Z",
    "status": "Open",
    "category": "Art",
    "latitude": -8.409518,
    "longitude": 115.188919
  },
  {
    "id": "4",
    "title": "Jogja Art & Culture Festival",
    "hostBy": "Creative Jogja",
    "date": "2025-12-10T09:30:00Z",
    "status": "Sold Out",
    "category": "Art",
    "latitude": -7.79558,
    "longitude": 110.36949
  },
  {
    "id": "5",
    "title": "Jakarta Marathon 2025",
    "hostBy": "Jakarta Sports Council",
    "date": "2025-08-21T05:00:00Z",
    "status": "Sold Out",
    "category": "Sport",
    "latitude": -6.17511,
    "longitude": 106.86503
  },
  {
    "id": "6",
    "title": "Bandung Extreme Run",
    "hostBy": "West Java Runners",
    "date": "2025-11-25T06:00:00Z",
    "status": "Open",
    "category": "Sport",
    "latitude": -6.91746,
    "longitude": 107.61912
  }
]
